[
  {
    "id": "5",
    "name": "My store #5",
    "address": "2 boulevard Saint-Martin",
    "zip": "75003",
    "city": "Paris",
    "state": null,
    "country": "France",
    "url": "http://www.example.com/store5",
    "latitude": "48.8685",
    "longitude": "2.35873",
    "distance": "0.850505274284746",
    "distance-kilometers": "1 km",
    "distance-miles": "1 mi"
  },
  {
    "id": "3",
    "name": "My store #3",
    "address": "123 Boulevard de Ménilmontant",
    "zip": "75020",
    "city": "Paris",
    "state": null,
    "country": "France",
    "url": "http://www.example.com/store3",
    "latitude": "48.8659",
    "longitude": "2.38373",
    "distance": "1.73589507637751",
    "distance-kilometers": "2 km",
    "distance-miles": "1 mi"
  },
  {
    "id": "4",
    "name": "My store #4",
    "address": "35 rue Étienne Dollet",
    "zip": "75020",
    "city": "Paris",
    "state": null,
    "country": "France",
    "url": "http://www.example.com/store4",
    "latitude": "48.8683",
    "longitude": "2.38558",
    "distance": "1.86794964442649",
    "distance-kilometers": "2 km",
    "distance-miles": "1 mi"
  },
  {
    "id": "1",
    "name": "My store #1",
    "address": "12 Avenue Aristide Briand",
    "zip": "35000",
    "city": "Rennes",
    "state": null,
    "country": "France",
    "url": "http://www.example.com/store1",
    "latitude": "48.1105",
    "longitude": "-1.66476",
    "distance": "1.15559006131999",
    "distance-kilometers": "1 km",
    "distance-miles": "1 mi"
  },
  {
    "id": "2",
    "name": "My store #2",
    "address": "34 Boulevard de Metz",
    "zip": "35000",
    "city": "Rennes",
    "state": null,
    "country": "France",
    "url": "http://www.example.com/store2",
    "latitude": "48.1166",
    "longitude": "-1.65817",
    "distance": "1.3976680062773",
    "distance-kilometers": "1 km",
    "distance-miles": "1 mi"
  }
]